{
  "debugMode": true,
  "lastModified": "2019-02-03T17:54:01",
  "useGeolocation": false,
  "useTeaser": false,
  "hasCamera": false,
  "startDateTime":  { "year": 2019, "month": 2, "day": 4, "hour": 10, "min": 0 },
  "endDateTime":    { "year": 2019, "month": 2, "day": 12, "hour": 0, "min": 0 },
  "expireDateTime": { "year": 2019, "month": 2, "day": 26, "hour": 0, "min": 0 },
  "startPosition":{
    "name": "札幌大通り公園",
    "lat":  43.06019,
    "lng":  141.35179
  },
  "eventAreaRadius": 15000,
  "areas": {
    "place0": {
      "name":              "道新雪の広場",
      "lat":               43.060262,
      "lng":               141.350108,
      "radius":            40,
      "image":             "../assets/images/doshin_image_photo.jpg",
      "content":           "大雪像のテーマは\n「北海道を駆ける！サラブレッド」。\n時計台やクラーク像を背景に、2頭の\nサラブレッドが力強く駆け抜けます。",
      "openingHours":      "",
      "soundId":           "AntiHero",
      "couponId":          "Doshin"
    },
    "place1": {
      "name":              "スノー・\nインタラクティブ・ゲーム",
      "lat":               43.060921,
      "lng":               141.354799,
      "radius":            30,
      "image":             "../assets/images/snow_image.jpg",
      "content":           "雪玉をセンサーに反応させ、\n映像を変化させるゲームが2丁目会場\nに初登場。デジタルと雪が融合した\n未来の雪まつりを体験しよう。",
      "openingHours":      "",
      "soundId":           "SOS"
    },
    "place2": {
      "name":              "ソニーストア札幌",
      "lat":               43.059260,
      "lng":               141.353578,
      "radius":            25,
      "image":             "../assets/images/sonystore_image.jpg",
      "content":           "お客様のスマートフォンと\n店内のヘッドホンをつなげてOK。\nおすすめのノイキャン・ワイヤレスモデル\nでいい音に浸ってください♪",
      "openingHours":      "営業時間：11:00 ~ 19:00",
      "soundId":           "Illumination",
      "couponId":          "SonyStore"
    },
    "place3": {
      "name":              "札幌PARCO",
      "lat":               43.058996,
      "lng":               141.352888,
      "radius":            25,
      "image":             "../assets/images/parco_image.jpg",
      "content":           "大通駅直結の商業施設です。\n最新のファッションから話題の雑貨、\n旬のグルメを取り揃えて、\nお客様をお待ちしております。",
      "openingHours":      "営業時間：10:00 ~ 20:00（土曜のみ ~20:30）\n8F・レストラン 11:00 ~ 22:45",
      "soundId":           "Sazanka"
    },
    "place4": {
      "name":              "セイコーマート\n南1条西4丁目店",
      "lat":               43.059030,
      "lng":               141.351719,
      "radius":            30,
      "image":             "../assets/images/secoma_image.png",
      "content":           "店内調理「ホットシェフ」の他、\nオリジナル商品も盛りだくさん！\n北海道の「セイコーマート」を、\nこの機会にぜひご利用ください。",
      "openingHours":      "営業時間：9:00 ~ 24:00",
      "soundId":           "SilentNight"
    }
  }
}
